Junction_ID,Junction_Name,Latitude,Longitude,Junction_Type,Platform_Count,Max_Capacity
JN0001,Agra Central,20.71475550388423,68.87850356790915,Minor,2,41
JN0002,Patna,13.796316264833866,74.7239288026026,Terminal,9,17
JN0003,Bikaner Junction,9.38619158007473,73.55330888799327,Major,7,30
JN0004,Jalandhar Junction,27.486372689610853,81.3250157304548,Yard,4,17
JN0005,Ratlam,17.014072929797344,96.54298078724781,Yard,5,40
JN0006,Gorakhpur Junction,35.081905077786445,91.48386733195504,Minor,7,31
JN0007,Varanasi Junction,23.595402246993658,72.43823531775082,Minor,2,14
JN0008,Chennai Central Junction,33.42843342457098,71.6556075094604,Yard,4,7
JN0009,Jaipur Central,34.87739456419118,78.88594326308028,Minor,6,14
JN0010,Silchar Junction,31.089392504582236,68.10926314196546,Terminal,7,28
JN0011,Allahabad,34.41305298478852,92.55007535149669,Major,11,39
JN0012,Bareilly Terminal,23.431421201304698,75.72495160147069,Minor,4,47
JN0013,Indore,23.10403318568151,81.00264112751572,Terminal,10,29
JN0014,Pune Terminal,10.85758074786448,89.96641317687997,Terminal,4,46
JN0015,Chandigarh Central,18.648040618507473,68.5475454787108,Terminal,6,48
JN0016,Kanpur Central,28.16916531615186,88.26043209352673,Minor,6,22
JN0017,Trivandrum Central,22.186699021437853,81.0576906114025,Major,10,31
JN0018,Dibrugarh Terminal,19.653350885007704,88.7922829330529,Terminal,4,30
JN0019,Ludhiana Junction,18.351181640495916,96.69607882552515,Yard,7,27
JN0020,Jammu Junction,22.700973366238635,87.93430746788573,Terminal,9,20
JN0021,Patna Terminal,9.297791583860906,76.59678101860251,Major,6,18
JN0022,Silchar,16.983194110144197,83.13464939589687,Terminal,8,18
JN0023,Hyderabad Junction,31.50497811100479,96.31855723573436,Yard,9,21
JN0024,Lucknow Central,36.90350564803097,93.90473245174525,Yard,7,41
JN0025,Jamshedpur,10.555670515516175,92.54322237064534,Yard,5,48
JN0026,Asansol,19.719185584545755,74.42353047476173,Major,3,37
JN0027,Gwalior,20.89935935670467,87.38617000851872,Major,7,42
JN0028,Jabalpur,35.35941511069328,70.8563446087027,Yard,2,35
JN0029,Vijayawada Junction,32.54950030057876,82.64980563415924,Major,11,6
JN0030,Varanasi Junction,33.53938541395431,79.52002181253822,Yard,6,42
JN0031,Chennai Central Central,28.541397423261138,78.66756825314123,Yard,9,47
JN0032,Kota Terminal,30.786828992715254,95.47848167126992,Major,5,22
JN0033,Mumbai Central Terminal,33.65557456364715,85.87050329660164,Minor,4,31
JN0034,Nagpur Terminal,35.32672719913499,89.89697791981713,Terminal,3,18
JN0035,Mysore Terminal,31.480553484554125,88.17465223324483,Yard,2,47
JN0036,Mumbai Central Terminal,28.77781161662284,79.2083179630535,Major,6,10
JN0037,Surat Terminal,28.16294985538809,77.9717536907348,Yard,10,13
JN0038,Vadodara Junction,9.690618912008354,96.95421578378945,Yard,2,20
JN0039,Bhubaneswar,11.259106272932573,78.08439723122015,Terminal,8,5
JN0040,Mumbai Central Central,10.26902085882066,90.85544925841135,Yard,7,12
JN0041,Bikaner Central,13.469995052236303,71.29073549119573,Major,7,25
JN0042,Coimbatore Junction,9.451039256607945,70.01246413327571,Minor,3,18
JN0043,Puri,30.9492289859177,84.85963015893267,Yard,8,44
JN0044,Jalandhar,9.451871285705536,93.3353808564063,Yard,11,16
JN0045,Ludhiana,26.964009440496486,94.75607132474411,Major,5,31
JN0046,Nashik Junction,24.76417642636012,78.90221288669551,Minor,8,11
JN0047,Dehradun Junction,31.569948745617626,87.27920127214546,Minor,8,25
JN0048,Udaipur Terminal,24.821116149126752,88.87114257236429,Major,9,26
JN0049,Hyderabad Terminal,8.235137709700183,68.26832315064117,Major,5,28
JN0050,Vijayawada Terminal,8.654521200629837,87.92089508645478,Terminal,4,32
JN0051,Gorakhpur Junction,16.726653121797142,72.8468951312099,Minor,2,25
JN0052,Bangalore Terminal,13.766027378307918,82.74377332269418,Major,7,24
JN0053,Kanpur Junction,9.719957949231807,76.85445107196472,Yard,4,6
JN0054,Vadodara,12.105011174836076,92.18963756417013,Terminal,6,11
JN0055,Srinagar Terminal,24.906955911831155,79.64794064716703,Minor,10,25
JN0056,Dhanbad,16.276753418782405,92.48207798751073,Minor,5,38
JN0057,Vadodara Terminal,31.863753980511557,73.47723541612278,Major,10,15
JN0058,Rourkela,16.62728742978738,76.59409422953684,Major,5,10
JN0059,Kochi Central,28.7122476688621,70.015754372009,Minor,5,17
JN0060,Srinagar,25.438187905748386,84.31634528015427,Minor,6,18
JN0061,Udaipur Central,30.987647146044175,93.7393112939678,Minor,7,20
JN0062,Mumbai Central Terminal,18.294856190112252,70.1038633766129,Minor,10,35
JN0063,Gwalior,16.841501364345007,96.71509801529083,Minor,11,30
JN0064,Vijayawada Junction,20.99861242125658,80.95145513209302,Minor,5,13
JN0065,Jodhpur,34.84786793534248,94.36868626020488,Major,8,20
JN0066,Vijayawada,29.027700595609726,71.50899325784992,Major,8,42
JN0067,Ahmedabad Junction,31.640226727126784,96.38682444016881,Terminal,2,13
JN0068,Davangere,11.072721428977383,71.25499108775607,Yard,11,13
JN0069,Haridwar Terminal,29.836466901587386,71.08467682517207,Terminal,2,11
JN0070,Vadodara,22.594653126123617,86.49225733830913,Yard,9,9
JN0071,Shimla,13.196210564134354,86.76503482150734,Major,2,43
JN0072,Hyderabad Central,20.40306185297037,95.72457160411044,Major,9,41
JN0073,Davangere,35.56549976131683,96.43201644675139,Major,6,42
JN0074,Patna Junction,10.567147141227125,85.66097422050592,Minor,4,41
JN0075,Chandigarh,23.791407494230732,83.4369976380174,Terminal,3,21
JN0076,Jalandhar Junction,14.343469370018699,75.04608529518255,Major,3,21
JN0077,Allahabad Terminal,15.371153714864068,82.22877748088108,Terminal,8,31
JN0078,Puri,18.537823046444835,81.47085526461825,Yard,3,41
JN0079,Siliguri,35.52301241571722,70.2699599411664,Minor,5,49
JN0080,Madurai Terminal,32.49656584520001,80.13311679368488,Terminal,10,18
JN0081,Lucknow,8.97988537749921,85.20152387028689,Terminal,5,36
JN0082,Meerut Terminal,18.091091318501277,81.60274986641346,Minor,6,27
JN0083,Indore Junction,8.969701581271833,81.63722347453387,Yard,4,5
JN0084,Bareilly Central,17.80042156031343,76.98942395662863,Minor,3,9
JN0085,Kolkata Central,26.63342322484162,75.97870496390667,Minor,6,25
JN0086,Jalpaiguri,32.15059305967554,70.0958795613292,Terminal,6,34
JN0087,Allahabad Terminal,28.587246327608632,68.31006771329155,Minor,11,40
JN0088,Mangalore Central,22.198040291048372,77.02988782273631,Major,8,6
JN0089,Bhilai,9.48869676838665,79.02435411677243,Minor,11,22
JN0090,Jodhpur Terminal,29.54182354596111,69.47476509617846,Minor,6,20
JN0091,Agra Junction,17.779377387396554,68.41186252895217,Major,3,28
JN0092,Mysore,19.79046642925924,78.3130379784694,Yard,11,6
JN0093,Mangalore Central,14.515160303047072,89.07904341451638,Minor,8,34
JN0094,Bhopal Junction,9.867748364436252,69.59609355788876,Terminal,10,8
JN0095,Dehradun,30.850286699514104,74.60745245421852,Terminal,10,9
JN0096,Sangli,31.601044816192452,82.31176629715739,Minor,8,12
JN0097,Kanpur Junction,21.558771641119208,79.72238127290328,Terminal,2,38
JN0098,Belgaum,28.48469438365892,76.42388981747439,Minor,10,28
JN0099,Dehradun,20.269190161098003,76.08391818459025,Terminal,10,17
JN0100,Guwahati Terminal,19.206857176993704,77.57853108857589,Minor,7,21
JN0101,Bhopal Central,36.84124670310797,95.74055486611263,Yard,6,6
JN0102,Amritsar Central,16.55110321402121,94.48897520675693,Minor,4,9
JN0103,Kolkata,34.62948687029788,85.48711137246744,Yard,3,39
JN0104,Madurai,13.601574782508417,87.36980973428646,Minor,8,10
JN0105,Bareilly Junction,27.495625258044416,90.68947845068931,Major,8,33
JN0106,Puri,23.426715264712122,82.82764270674417,Yard,11,19
JN0107,Nagpur Central,34.73188776014726,78.82797822656836,Major,8,7
JN0108,Korba,15.842939378671366,79.6103122338288,Yard,4,45
JN0109,Chandigarh Central,16.857882569905968,89.59350669109801,Major,2,26
JN0110,Kolkata Central,24.754337334664417,82.93744690898177,Terminal,11,26
JN0111,Gwalior,20.324861972176034,72.08257186035473,Yard,8,24
JN0112,Silchar,17.445512717522973,88.92780778330034,Yard,10,18
JN0113,Patna,8.598659746828005,95.90815386971006,Minor,3,36
JN0114,Amritsar Junction,15.436876506432455,68.29206291013621,Yard,2,39
JN0115,Jaipur,27.134804438108446,77.25317419730106,Minor,6,30
JN0116,Kolkata,34.10681086553117,83.16646393806914,Terminal,2,44
JN0117,Kochi Junction,13.790877358877196,82.68472239191406,Yard,7,20
JN0118,Jammu,35.3074107101277,93.08681336954645,Yard,3,26
JN0119,Nashik Junction,26.78243007864729,80.23089442824168,Minor,3,41
JN0120,Hyderabad,14.237471634767692,75.88396107505156,Yard,10,15
JN0121,Chandigarh,30.332581906368375,81.4075264263192,Minor,6,12
JN0122,Lucknow Junction,12.724581197046954,77.76775421805625,Yard,10,30
JN0123,Hyderabad,11.795413670272923,81.26949658254517,Terminal,4,48
JN0124,Gorakhpur Central,30.705091009456147,89.64139193615596,Minor,8,47
JN0125,Guwahati Terminal,26.03691609979832,79.46533881498011,Terminal,9,42
JN0126,Ujjain,21.266387750988834,83.01268137869776,Major,11,18
JN0127,Jaipur Terminal,9.045083947476435,95.0505946159443,Major,3,8
JN0128,Surat Terminal,22.263849270401273,90.28556607425988,Yard,7,16
JN0129,Jalandhar Terminal,15.038734617158912,96.75851853211867,Yard,10,13
JN0130,Ranchi,12.260000497455598,96.1547717381633,Major,3,15
JN0131,Nagpur,31.7943968950778,69.296501011147,Major,5,43
JN0132,Bangalore Central,21.828295470884076,91.8564518751594,Minor,10,23
JN0133,Itarsi,21.480644307417514,83.5881699058884,Terminal,6,40
JN0134,Jalandhar Junction,34.27368536882686,69.19625938068019,Yard,10,32
JN0135,Silchar,30.283597939514614,70.58699020569195,Terminal,9,36
JN0136,New Delhi,8.580339985234469,75.33279438411421,Major,3,36
JN0137,Shimla,22.154813460311992,88.6488513545791,Yard,2,9
JN0138,Raipur,11.939140423984705,74.87085170121198,Major,9,8
JN0139,Kanpur Central,27.598537436539257,84.23661180173252,Minor,4,11
JN0140,Silchar Central,25.218771819808207,68.45634343083279,Major,5,18
JN0141,Jalandhar Central,15.30374750802556,90.54176229617363,Minor,6,27
JN0142,Itarsi,25.284874667544234,81.35119909457617,Yard,11,40
JN0143,Sangli,26.45480846557813,89.78692039119463,Minor,7,20
JN0144,Gwalior Central,36.41959711132617,93.58283500965996,Minor,10,20
JN0145,Gorakhpur Terminal,27.176693881687655,79.87100270558939,Terminal,2,9
JN0146,Pune Terminal,34.57624348585847,69.45064574058017,Major,2,20
JN0147,Silchar Junction,29.161289195954907,91.51944587303001,Terminal,11,46
JN0148,Raipur,11.346595890144018,79.79746944934863,Major,10,32
JN0149,Itarsi,34.21542026261939,83.29934791934735,Yard,8,19
JN0150,Mysore Terminal,33.21123258976108,82.01603201222153,Terminal,8,10
JN0151,Guwahati Terminal,32.622000885220714,83.12638587674253,Major,7,30
JN0152,Jaipur Central,29.12319939692124,86.66870744084477,Major,9,43
JN0153,Aurangabad,16.35562873678606,90.28498911332892,Minor,3,23
JN0154,Mysore Terminal,14.086075641094514,85.37388042797983,Major,8,29
JN0155,Shimla Terminal,18.79511356039607,88.89926918072801,Minor,2,44
JN0156,Ajmer,24.31741667984495,95.96728844306054,Yard,9,20
JN0157,Varanasi Central,33.847197280004764,91.31265655332234,Terminal,8,16
JN0158,Solapur,36.72542524743072,91.25067508852706,Minor,5,20
JN0159,Aurangabad,28.815055799670695,87.71472563137912,Yard,10,17
JN0160,Mysore Junction,20.01494105769102,81.73351545866474,Yard,6,36
JN0161,Dibrugarh Junction,35.941044081029005,94.39788136636454,Yard,5,36
JN0162,Asansol,8.531813281308846,71.70107240089484,Yard,4,34
JN0163,Ajmer Central,35.215578158608565,71.55305513357573,Major,3,36
JN0164,Haridwar Terminal,33.227272082819304,85.5432835827349,Major,10,31
JN0165,Guwahati Junction,24.789178109955355,86.76786538947857,Major,10,35
JN0166,Mysore Junction,31.873564418148483,70.9882091094985,Yard,3,27
JN0167,Allahabad Junction,16.801793621465233,71.14961466804829,Minor,10,49
JN0168,Kolhapur,33.36065355610424,89.72729778763605,Major,9,28
JN0169,Nagpur Junction,10.28815305524483,70.64926209562667,Yard,6,8
JN0170,Kota Junction,34.49641832583886,81.63823415163387,Major,11,30
JN0171,Raichur,31.117498068659124,80.84265572678112,Terminal,11,14
JN0172,Allahabad Central,31.246564621778248,90.95976885994386,Terminal,3,31
JN0173,Agra Junction,32.867072358350384,68.00537066356785,Yard,6,49
JN0174,Kanpur Central,11.179217637699752,89.73914681232169,Major,3,15
JN0175,Dehradun Terminal,36.30631090042256,95.7527612972428,Terminal,10,41
JN0176,Meerut Terminal,13.401103210693467,82.07500201689813,Major,7,35
JN0177,Jaipur Terminal,26.393326950094583,78.2632643491427,Yard,8,32
JN0178,Kota Junction,34.38488558412975,93.24161343006926,Yard,4,36
JN0179,Jodhpur Terminal,16.508300591906373,68.96912184644673,Minor,8,39
JN0180,Kolkata Terminal,35.48823488997072,82.06708758133203,Minor,2,21
JN0181,Jaipur,34.027756218142265,95.45452953598276,Major,9,43
JN0182,Kota Central,29.53716084103622,73.21699324331033,Yard,4,35
JN0183,Katni,35.24071545654662,78.68701207731304,Yard,10,15
JN0184,Vijayawada,29.141978542055327,94.9064917877832,Terminal,3,15
JN0185,Bikaner,8.40831023520383,68.20177003179545,Minor,6,25
JN0186,Lucknow Junction,15.546129670136855,73.13425554132353,Yard,8,12
JN0187,Allahabad Junction,8.238470810277855,89.34638218577547,Terminal,10,17
JN0188,New Delhi Central,24.802012093090514,73.8660382516294,Yard,10,31
JN0189,Bilaspur,25.871844187066557,95.14829503087768,Minor,4,47
JN0190,Ratlam,16.453990916384576,84.31863475692388,Yard,7,21
JN0191,Ahmedabad Central,8.335593763902837,76.68818701197125,Terminal,9,47
JN0192,Ajmer Terminal,11.381486026435223,78.66582547893634,Terminal,4,8
JN0193,Indore Terminal,31.48748048887662,81.34599192654184,Major,8,41
JN0194,Patna,23.22308844306056,81.83676325447482,Major,7,38
JN0195,Jalandhar Terminal,17.184796538731266,75.48658686209588,Yard,8,12
JN0196,Shimla Central,12.295883738475109,86.96106895100266,Minor,5,17
JN0197,Patna,22.60372999381915,93.92758355091271,Terminal,6,10
JN0198,Jaipur,17.773080948780496,71.74112107567451,Terminal,5,38
JN0199,Mysore,24.770369840028707,75.51796392631783,Minor,11,20
JN0200,Coimbatore Central,18.092387259141297,88.85078178654376,Terminal,7,18
JN0201,Agra Junction,28.769042431736487,80.08572275809755,Terminal,2,20
JN0202,Haridwar,17.06216145814279,78.09287442853933,Yard,10,31
JN0203,Lucknow Junction,35.997824401422605,80.07156898144218,Terminal,2,40
JN0204,Belgaum,23.43512840711164,85.59893442622692,Yard,8,24
JN0205,New Delhi Junction,17.89197870027128,83.70626842115195,Terminal,4,38
JN0206,Kota,21.412216101762205,84.12552030411887,Minor,8,19
JN0207,Bhopal Central,26.12556417087502,75.32448821499293,Major,3,10
JN0208,Ajmer Terminal,10.73210054476232,89.87418765802127,Terminal,3,37
JN0209,Amritsar Terminal,33.82933360086531,88.83740822554513,Terminal,9,6
JN0210,Amritsar Junction,8.451313841502763,86.73296361247569,Yard,8,22
JN0211,Gorakhpur Central,11.11928036134259,80.76370319984346,Major,5,48
JN0212,Chennai Central,26.131294700932717,91.99414161461338,Minor,9,35
JN0213,New Delhi Terminal,16.91554344388728,76.35137963004252,Yard,8,9
JN0214,Hubli Terminal,18.734289632162092,70.06350242059486,Yard,3,31
JN0215,Indore Central,32.88060641666775,79.34996470754866,Minor,8,19
JN0216,Puri,16.12627580272656,69.54049810177104,Yard,6,20
JN0217,Nagpur Terminal,14.72191805088081,94.14059829564776,Major,4,33
JN0218,Dibrugarh Central,32.013726739253414,79.93534938512988,Minor,9,19
JN0219,Surat Central,20.91885280941703,93.33650908821318,Major,3,13
JN0220,Dehradun Central,21.79299781493951,80.30749248970754,Terminal,6,19
JN0221,Bikaner Terminal,27.99943651553851,81.61037561426063,Minor,9,6
JN0222,Kanpur Terminal,19.91672552112133,83.6189181897719,Major,8,44
JN0223,Dehradun,22.349036293314327,92.6248351916668,Yard,10,45
JN0224,Bhopal,26.281626855043985,76.7355466938061,Yard,3,12
JN0225,Guwahati,21.36670241467013,89.56523167942166,Major,6,31
JN0226,Varanasi,15.100346973476096,88.78005555359098,Terminal,4,44
JN0227,Nagpur Junction,32.682213949579086,80.39472838960043,Yard,10,12
JN0228,Nashik Terminal,26.692331484322843,89.12223228682029,Major,6,27
JN0229,Dibrugarh,17.60520062407052,71.44101539269131,Minor,8,33
JN0230,Meerut,22.56674981219052,72.8230393060634,Major,3,19
JN0231,Coimbatore,16.205479473082605,74.91034551699397,Major,9,26
JN0232,Nagpur Central,23.822645468387368,88.49692462750762,Terminal,3,49
JN0233,Bhilai,15.590833202073686,82.86513683275159,Major,9,31
JN0234,Jodhpur Terminal,21.73904445842289,91.18778067895809,Major,4,22
JN0235,Indore Central,32.111082035979024,75.96259715097963,Yard,11,33
JN0236,Jammu Terminal,21.790269127159608,77.2270810757524,Minor,10,35
JN0237,Lucknow,12.642149059115187,90.83244928626446,Major,10,6
JN0238,Gulbarga,15.334442361132327,69.17414690552083,Minor,3,13
JN0239,Surat Terminal,14.833677143221234,93.9411738704182,Minor,8,47
JN0240,Belgaum,27.76425486671286,87.72318125456505,Major,2,15
JN0241,Khandwa,10.56469003272957,95.67671150461884,Major,10,30
JN0242,Varanasi Junction,21.08876502946882,79.14163136285335,Minor,4,9
JN0243,Ajmer Central,10.570356267737843,94.74469522532317,Minor,5,46
JN0244,Vijayawada Junction,18.453427845328413,80.48223533455104,Minor,11,19
JN0245,Kota Central,34.84035032775995,92.03896684459735,Major,2,29
JN0246,Bina,20.408215930736745,70.86106392525146,Minor,7,27
JN0247,Nagpur,27.06948086775376,93.61046279356847,Terminal,7,6
JN0248,Puri,36.36981509397066,93.34901008592011,Yard,7,42
JN0249,Pune,29.416035193397065,91.3763827964529,Terminal,4,34
JN0250,Meerut Central,10.25132467224406,88.69039650262849,Major,3,48
JN0251,Chennai Central Junction,34.339498085634915,76.97496579665115,Yard,3,13
JN0252,Ludhiana Central,13.591281045621592,79.29167230106061,Yard,9,38
JN0253,Dehradun Junction,14.481335113419359,88.46227790351827,Terminal,7,18
JN0254,Solapur,20.25188376628089,90.8099191545853,Yard,8,30
JN0255,Mumbai Central Central,31.561229145148225,76.71998296118619,Yard,6,22
JN0256,Jammu Central,25.789918704471717,78.2602820886753,Minor,3,23
JN0257,Lucknow Central,12.261851771210534,94.59526776709889,Minor,7,16
JN0258,Raichur,16.317566118431117,79.67090901486418,Minor,10,34
JN0259,Siliguri,28.439079247833412,94.24726570603995,Minor,9,18
JN0260,Mumbai Central Central,8.232924052393065,82.27036945626404,Yard,5,5
JN0261,Durgapur,16.25555736645771,90.18944166460786,Major,10,7
JN0262,Ratlam,30.79929740674818,78.93154917890189,Minor,7,8
JN0263,Pune,33.523809249575606,93.7448517730056,Terminal,4,44
JN0264,Kochi Junction,8.062086661018782,79.02699382598831,Major,5,42
JN0265,Patna Central,25.58319147386143,78.58573381712587,Major,7,45
JN0266,Jaipur Terminal,21.47874197218752,96.92789862419498,Terminal,4,18
JN0267,Bareilly Junction,22.879013263039703,91.60648533007797,Yard,3,21
JN0268,Allahabad,28.532689735939442,75.37231704293396,Major,6,19
JN0269,Kochi Terminal,31.93123342680345,72.1389337650876,Major,8,9
JN0270,Dibrugarh Central,23.70891789697812,86.74565036330819,Yard,5,38
JN0271,Satna,17.658137825538432,79.5989016129342,Yard,9,36
JN0272,Srinagar Central,36.10822502585275,85.65184239750153,Terminal,2,38
JN0273,Rewa,12.440289927393755,75.80884230485103,Minor,3,44
JN0274,Srinagar,33.084825217856505,84.32409496434691,Major,2,8
JN0275,Madurai,13.612757823947605,84.06136847463335,Yard,11,27
JN0276,Amritsar Central,26.63980550482686,83.55265260811841,Terminal,7,39
JN0277,Guwahati Central,29.626411136194495,73.9528785619691,Minor,7,33
JN0278,Ajmer Terminal,32.321057480281254,71.00372041698743,Major,5,40
JN0279,Bhopal Central,10.404887422782055,86.61148672878933,Terminal,3,26
JN0280,Varanasi Terminal,29.270347888226922,79.2710240447619,Minor,5,43
JN0281,Allahabad Central,28.118497662251528,90.02729318350333,Yard,7,38
JN0282,Asansol,15.733029571842629,88.76671099220889,Terminal,10,45
JN0283,Amritsar Central,36.81941998027001,89.13816193793176,Terminal,4,49
JN0284,Mangalore Junction,34.184129323737764,91.61815671922557,Minor,7,33
JN0285,Hyderabad Central,8.586850746558563,83.19580185647536,Major,6,18
JN0286,Hyderabad Junction,36.246905524189856,94.43216610019034,Minor,4,44
JN0287,Kochi Junction,10.994505473646395,69.51054930088738,Minor,3,23
JN0288,Bhubaneswar,21.39134062549209,94.40004404295101,Minor,4,31
JN0289,Bikaner Junction,18.30766374101141,75.29387815061563,Terminal,8,33
JN0290,Hubli Central,10.387922729804929,85.58925014446548,Yard,11,12
JN0291,Hubli Junction,31.622059823579907,83.47454793254698,Minor,11,24
JN0292,Patna Central,11.994120743997092,85.75282040097122,Terminal,11,38
JN0293,Jodhpur Junction,21.414335941100187,85.4401424602932,Minor,2,8
JN0294,Rourkela,29.43461534695984,77.22228143961465,Yard,10,28
JN0295,Ludhiana Central,21.13694492406895,82.87359547277764,Yard,9,29
JN0296,Kochi,12.846840102094045,88.25593356663174,Terminal,8,37
JN0297,Bhilai,17.346626728684345,84.17627775506526,Minor,11,32
JN0298,Haridwar,25.37444185978314,96.77166766921601,Yard,6,34
JN0299,Jalandhar Central,33.07792097251163,80.91830196275708,Terminal,6,34
JN0300,Ludhiana Central,9.25070585834603,84.6445622668045,Yard,3,33
JN0301,Lucknow Terminal,31.07549386775029,77.73781092158225,Major,4,22
JN0302,Ajmer Junction,25.171573854179535,91.76601964259206,Yard,5,24
JN0303,Dehradun Central,34.2558224596104,79.87465151477454,Terminal,6,27
JN0304,Nashik Junction,16.59854555969423,72.6192080831343,Terminal,5,23
JN0305,Jamshedpur,11.691483459757272,86.83580431155579,Yard,8,31
JN0306,Jodhpur Central,32.89044873104008,76.98317291237042,Yard,3,24
JN0307,Mangalore Central,35.78928399474259,70.63934239959299,Minor,7,49
JN0308,Amritsar,28.448281252530855,92.65866336058195,Terminal,7,20
JN0309,Udaipur,26.27020692794917,92.51715684932233,Minor,3,12
JN0310,Guwahati Central,34.272605656644686,94.12794138512415,Yard,7,24
JN0311,Bikaner,19.885315865178228,96.7332393224322,Major,3,21
JN0312,Cuttack,23.363472542447155,77.33037386589005,Major,6,42
JN0313,Bangalore Central,31.27759856326232,72.0462766362304,Minor,5,41
JN0314,Kochi Terminal,26.548896613468326,82.37111502090197,Major,7,32
JN0315,Jodhpur,25.677487483055458,70.64091928038324,Yard,9,49
JN0316,Silchar Central,14.043126691255935,87.17781490631913,Major,3,19
JN0317,Udaipur,14.02472891735352,86.81366117986298,Minor,7,18
JN0318,Bikaner Junction,27.319595847726504,93.83485197130152,Terminal,10,41
JN0319,Bareilly,19.29692576996415,82.82757664113501,Yard,5,22
JN0320,Mumbai Central Junction,22.42967918046993,68.18835546397844,Minor,9,28
JN0321,Amritsar Terminal,8.6895243667547,79.51044579561416,Major,7,26
JN0322,Nagpur Terminal,14.041481458941153,83.21596395071084,Minor,6,20
JN0323,Meerut Junction,27.792297978377313,92.57950239497235,Major,10,31
JN0324,Bikaner,29.773530059858732,75.700781359294,Major,3,33
JN0325,New Delhi,21.780733864251534,95.40840771293384,Yard,7,22
JN0326,Vijayawada,33.85216232119773,92.58275474090428,Minor,6,38
JN0327,Mangalore Junction,31.981521727439215,92.48836366048252,Terminal,6,19
JN0328,Silchar Central,15.96479759318616,89.18847071662344,Minor,11,14
JN0329,Agra,33.579397394223264,80.88742074855732,Major,10,11
JN0330,Bikaner Junction,15.512137093494925,70.0229533570483,Minor,8,11
JN0331,Katni,14.235654511329352,73.9332148144615,Yard,8,47
JN0332,Dibrugarh Terminal,30.382358585868804,93.3760014061125,Yard,8,44
JN0333,Agra Central,25.336079148962156,68.43120025602008,Major,8,44
JN0334,New Delhi Junction,34.814376650333394,71.01636117426733,Minor,9,49
JN0335,Gwalior Junction,16.948428430078593,96.7649110111367,Yard,11,6
JN0336,Bareilly Junction,14.514524516444165,91.52207516580462,Major,6,16
JN0337,Srinagar Junction,21.85882916742674,89.0945215215326,Major,5,30
JN0338,Gorakhpur,20.849202055070016,72.80672144626519,Terminal,6,23
JN0339,Hyderabad Terminal,17.463287462326186,89.10719071480177,Yard,9,43
JN0340,Mumbai Central Terminal,29.742833482214106,71.95130840763507,Major,11,18
JN0341,Jaipur,16.268862080240552,73.66725501251211,Terminal,3,18
JN0342,Gorakhpur Terminal,10.751250667580212,96.90861774792317,Minor,9,38
JN0343,Allahabad Central,18.80159922845114,81.21633860624605,Terminal,2,8
JN0344,Itarsi,18.56043175403356,92.71859512859926,Yard,8,47
JN0345,Kanpur Central,18.561864456835966,74.08802311853105,Yard,9,15
JN0346,Cuttack,14.517751107143368,73.66006383616018,Minor,5,37
JN0347,Pune Terminal,29.811562309210192,70.29474939476583,Yard,4,10
JN0348,Chandigarh,32.12475384894516,73.06628927648966,Major,10,26
JN0349,Jalandhar,25.579612585300072,84.17517801384379,Major,2,21
JN0350,Jodhpur,8.887559393770223,76.21602872584161,Terminal,6,25
JN0351,Agra,13.394987779767082,95.10157246759489,Major,9,49
JN0352,Bikaner Central,31.063324299119454,86.29261226004303,Major,6,10
JN0353,Coimbatore Terminal,14.519574085795352,96.98943313733787,Yard,7,9
JN0354,Bareilly,8.063338740661159,93.77364573779761,Yard,7,19
JN0355,Patna Junction,31.3843031430141,72.76028447621105,Yard,11,35
JN0356,Kochi Central,22.569681010923674,94.59238372153658,Terminal,10,26
JN0357,Jalandhar,26.345204780844917,74.73570604812824,Terminal,6,14
JN0358,Vijayawada Central,22.763415894008595,80.56427153817677,Yard,6,44
JN0359,Haridwar Junction,27.478315659074642,73.68923760120138,Minor,7,43
JN0360,Dhanbad,30.145763943173375,70.81159038617473,Minor,6,10
JN0361,Trivandrum Terminal,9.937115240602989,95.32796172246937,Terminal,8,38
JN0362,Bikaner,16.44690314541637,78.79961931502532,Minor,4,6
JN0363,Cuttack,26.686605314284453,89.96778486173667,Terminal,4,26
JN0364,Mysore Central,28.462974321224177,84.74291003069473,Terminal,6,12
JN0365,Gorakhpur Central,20.462616051194335,82.32724314113626,Minor,4,8
JN0366,Patna,11.728740563109476,88.22637674957508,Minor,10,8
JN0367,Mangalore Terminal,34.817676800066494,92.70326745574906,Major,4,18
JN0368,Jaipur Terminal,11.527063829722733,78.53838190353167,Major,3,20
JN0369,Varanasi Terminal,9.269209568751238,84.44142986690998,Minor,6,19
JN0370,Udaipur Central,9.114343723532699,79.64902648828682,Yard,11,9
JN0371,Jammu Central,10.817775777013,71.83758612748265,Terminal,3,6
JN0372,Srinagar,9.555223320772026,82.52810975390719,Major,6,15
JN0373,Dibrugarh Terminal,21.02957880599138,76.32616421689953,Major,2,36
JN0374,Gorakhpur,31.607940272586738,85.57717839573621,Minor,9,21
JN0375,Haridwar Central,11.13623232777876,82.68853483007084,Yard,10,22
JN0376,Gwalior Junction,29.851613132111932,83.22796954612508,Yard,3,22
JN0377,Amritsar Terminal,36.98056772329949,96.71770355213891,Minor,11,9
JN0378,Gulbarga,15.180947728768265,92.17264931476944,Terminal,7,18
JN0379,Vadodara Central,10.36140297250113,80.63937069730906,Terminal,5,42
JN0380,Amritsar Terminal,14.106796524643357,85.19666617469278,Terminal,4,8
JN0381,Srinagar Central,31.757686728362966,70.31691694594946,Major,3,34
JN0382,Udaipur Junction,18.462863631283074,85.75406283445926,Major,10,14
JN0383,Davangere,11.707760719352171,77.05977103270932,Yard,10,46
JN0384,Chandigarh Junction,30.97290495061097,82.34795994798833,Yard,6,45
JN0385,Ahmedabad Central,26.779982075252413,94.95334660576891,Major,8,15
JN0386,Bhopal,26.888277019560938,73.8714033255261,Terminal,3,48
JN0387,Davangere,9.746390568911853,70.36320934196902,Yard,3,34
JN0388,Jodhpur,17.419899182708086,68.73577315322716,Major,5,39
JN0389,Coimbatore,20.1884175415734,84.7352458363212,Terminal,5,24
JN0390,Durgapur,16.60480609579219,84.95403825848726,Yard,8,6
JN0391,Gulbarga,25.151474608071307,92.89097377470439,Yard,11,13
JN0392,Haridwar Junction,36.01384034216641,94.44142517332229,Minor,4,15
JN0393,Silchar,18.19778428930323,94.27041624078981,Terminal,10,24
JN0394,Kolkata Junction,8.946102420785026,95.42910396236022,Major,6,14
JN0395,Jalandhar,24.154912047833598,92.73572729653871,Minor,4,9
JN0396,Patna,34.014374258095536,94.85859158525017,Minor,11,42
JN0397,Kota Central,28.928963345616747,72.07442213096324,Major,7,47
JN0398,Jalandhar Terminal,12.603979538250417,94.75776158619175,Minor,9,40
JN0399,Madurai Central,28.42424382649899,75.33145842765114,Minor,10,25
JN0400,Bilaspur,16.706538173182093,79.60680785549198,Terminal,9,8
JN0401,Bikaner,9.247404967021605,93.2316006001692,Major,7,9
JN0402,Kanpur Terminal,25.824641749111695,92.62735519612905,Yard,10,45
JN0403,Pune,18.423905759284935,94.87451762583362,Terminal,6,23
JN0404,Dehradun,24.358462728970128,83.45788628315941,Yard,2,46
JN0405,Gwalior Central,17.12878308779178,69.51811423747847,Terminal,11,47
JN0406,New Delhi Central,33.43064902425456,87.60562414538434,Major,5,33
JN0407,New Delhi Junction,35.847317430841684,75.3564143145292,Minor,6,33
JN0408,Chennai Central Central,33.868873346883646,68.90078803626797,Terminal,3,27
JN0409,Jammu Terminal,27.309631573403717,70.0787020105847,Terminal,6,6
JN0410,Ujjain,12.33215185636561,81.60581540845456,Minor,8,23
JN0411,Hubli Terminal,15.914597649406769,68.07118300687148,Major,11,48
JN0412,Indore,31.16438304432423,95.41050307268318,Minor,5,48
JN0413,Shimla Central,36.08450700088163,93.72789196054313,Yard,9,45
JN0414,Kochi Central,21.373111558540295,77.02384197837164,Major,2,19
JN0415,Trivandrum Terminal,12.838308798204206,68.66947893600134,Major,2,9
JN0416,Jalandhar Central,11.832157966925955,85.26889119330451,Minor,5,37
JN0417,Vijayawada Terminal,15.324271066816237,78.79611004748733,Major,8,21
JN0418,Kolkata Junction,32.97623217030889,91.58004636621448,Major,3,29
JN0419,Puri,17.707562422181503,82.76938072971785,Terminal,2,36
JN0420,Gwalior,34.436309710247954,78.67962090628548,Minor,3,18
JN0421,Surat,23.40217325378051,79.83843285505873,Major,8,34
JN0422,Aurangabad,31.755770502790664,96.88821202160156,Major,9,13
JN0423,Chandigarh Junction,20.759239244229022,81.63681382866916,Terminal,3,23
JN0424,Madurai Central,30.299563547622483,87.97019176655495,Terminal,10,16
JN0425,Varanasi Terminal,17.63698741145883,81.64579586358546,Terminal,9,12
JN0426,Ratlam,29.209007760372877,96.69066531801998,Minor,5,28
JN0427,Hyderabad,18.237703811401005,96.11019889481076,Terminal,4,15
JN0428,Vadodara Junction,8.699243340465538,94.03514374805646,Yard,11,37
JN0429,Guwahati Central,35.639221091382616,80.27933171775821,Yard,9,48
JN0430,Siliguri,23.335351326546224,89.8603010292878,Major,9,40
JN0431,Vijayawada Junction,13.939244223235841,78.76087730930242,Yard,4,25
JN0432,Ahmedabad Junction,28.951377999829667,92.23052953677683,Major,11,18
JN0433,Agra Junction,19.904982570513965,93.11773381647717,Terminal,4,46
JN0434,Allahabad Terminal,35.26353490600545,79.08745877224698,Major,3,30
JN0435,Jammu Terminal,27.158788785018462,78.5717171325777,Terminal,11,10
JN0436,Vijayawada Terminal,11.37568268380663,73.92920606116252,Minor,6,36
JN0437,Dibrugarh,21.609186065487002,78.056042085682,Minor,8,45
JN0438,Vijayawada Junction,12.698650074568752,89.4462085937495,Terminal,3,23
JN0439,Guwahati,26.02015363414104,73.17603815606546,Terminal,3,49
JN0440,Bareilly Terminal,27.491046943399176,75.31365968140963,Terminal,4,36
JN0441,Dehradun Terminal,17.54378052912803,83.48473986111308,Terminal,2,25
JN0442,Bhubaneswar,22.088796206951574,70.49323832309713,Terminal,2,28
JN0443,Kota Central,35.365376448806344,88.11054027295678,Minor,11,35
JN0444,Nagpur,36.33216058416157,86.62174525906354,Terminal,4,35
JN0445,Dehradun Central,26.3806467806684,84.50294294902059,Minor,9,28
JN0446,Agra Terminal,14.890811805644633,83.5282909598209,Minor,7,13
JN0447,Bhopal Junction,25.621083700634223,72.4502481311367,Yard,5,41
JN0448,Agra Terminal,11.71866847180945,75.69024537877937,Yard,6,15
JN0449,Bangalore,22.153744531820223,95.29306971922936,Yard,6,34
JN0450,New Delhi,29.904828955615194,94.14794821466845,Terminal,7,31
JN0451,Kota Terminal,14.621594261206003,68.71947057123441,Yard,7,16
JN0452,Patna,9.114568391239544,75.97657898273451,Yard,8,49
JN0453,Madurai Junction,9.650142934431026,69.52227333463787,Minor,9,35
JN0454,Kolkata,9.903211864736472,79.6418629285401,Minor,8,10
JN0455,Madurai Central,19.991416974837783,80.28398897949329,Major,9,23
JN0456,Hyderabad Central,15.744767266941446,80.76418198960016,Minor,2,5
JN0457,Dibrugarh Central,32.205387131901446,84.19337137353153,Terminal,6,35
JN0458,Surat Junction,33.409897504524565,81.4123339463607,Terminal,7,7
JN0459,Jamshedpur,33.35330442384575,72.95931477812863,Terminal,7,47
JN0460,Nagpur Central,18.18316702614755,78.47188957816753,Minor,7,15
JN0461,Silchar Junction,34.01411697126985,94.15050860517862,Terminal,6,5
JN0462,Chandigarh Terminal,18.928231269468803,93.97816686775641,Major,4,12
JN0463,Kanpur Junction,23.829922629573105,77.8061626085017,Minor,5,48
JN0464,Madurai Junction,17.391675710153095,86.45937897300553,Yard,8,17
JN0465,Bhopal Junction,30.128757509128214,87.26626462712221,Terminal,8,31
JN0466,Shimla,20.65199401354743,69.28211157413531,Yard,4,11
JN0467,Allahabad Terminal,10.004866738707191,72.27356766249243,Minor,5,36
JN0468,Meerut,26.378228146671468,74.44644056105709,Minor,8,24
JN0469,Davangere,9.374558760003755,85.76893950631096,Terminal,7,25
JN0470,Korba,24.06109656016688,89.1904996465237,Terminal,10,13
JN0471,Kanpur Junction,16.954968864217282,79.89474930768849,Minor,5,18
JN0472,Udaipur,9.127978555157958,89.01167954776847,Terminal,5,29
JN0473,Silchar Central,35.40516770725176,96.64246268977126,Minor,6,27
JN0474,Trivandrum Terminal,29.363890400211595,76.62221357584936,Yard,11,31
JN0475,Pune Junction,32.310529393022136,89.20520077989215,Yard,6,31
JN0476,Belgaum,30.39241761330035,92.95745074594842,Terminal,6,45
JN0477,Silchar Junction,28.499312520759716,86.43301957722814,Terminal,4,21
JN0478,Solapur,9.982080927501043,91.96556443859437,Major,5,37
JN0479,Patna Terminal,22.583928260272156,81.43042298456307,Minor,3,35
JN0480,Ajmer Terminal,19.70216022870965,79.55776771659609,Yard,7,20
JN0481,Indore,31.222718987842892,82.31117269841212,Terminal,4,16
JN0482,Jodhpur,32.43186310784538,85.30260075641831,Major,2,46
JN0483,Dibrugarh,35.96579527811917,79.71833535530597,Terminal,9,27
JN0484,Sangli,30.67899382666265,96.07111392008738,Yard,11,46
JN0485,Davangere,8.506575778091076,73.57881967561161,Terminal,4,42
JN0486,Kochi Junction,24.179122585504768,75.36254453759693,Major,11,12
JN0487,Silchar,24.755128957433516,69.88890054187488,Major,11,32
JN0488,Varanasi Junction,15.907634519439963,73.53187556255466,Terminal,5,22
JN0489,Chandigarh,19.12042220188308,77.08898758075644,Minor,3,26
JN0490,Bellary,29.016423979308186,78.14340124995726,Major,5,29
JN0491,Guwahati Central,20.651247439584676,96.44445767849305,Minor,4,16
JN0492,Dehradun Terminal,26.923279454762145,85.75030022791192,Minor,8,27
JN0493,Patna Junction,29.257702231046085,75.80709167839304,Major,9,43
JN0494,Indore Central,20.312590953370353,92.2092773706805,Terminal,5,19
JN0495,Bareilly,26.25579934242684,82.17247888335646,Major,8,45
JN0496,Ludhiana Junction,16.611407782653586,90.95316308799796,Minor,9,18
JN0497,Mangalore Terminal,27.588212922674263,70.54812359702633,Terminal,8,13
JN0498,Ahmedabad Junction,25.2419529332063,76.43505411876126,Terminal,6,14
JN0499,Kota,35.31524421231154,83.37256641051829,Minor,8,44
JN0500,Chennai Central Terminal,25.0919148067954,87.84263261575273,Major,6,24
JN0501,Amritsar,36.403176320997716,81.46768428329874,Major,2,19
JN0502,Raipur,34.98228130218456,93.80901019365376,Major,7,9
JN0503,Ajmer,35.83347447122324,86.35898968608811,Yard,9,7
JN0504,Ahmedabad Terminal,20.10676212626682,89.98413154120317,Terminal,3,33
JN0505,Satna,26.03457695282141,68.72415611258981,Major,5,44
JN0506,Varanasi Terminal,10.92011443201029,80.28710140798962,Minor,3,17
JN0507,Jammu Terminal,12.135401561061023,84.1448401462618,Yard,10,36
JN0508,Nashik Junction,16.100225742835157,95.01089950599874,Major,8,17
JN0509,Durgapur,26.705908702006553,92.60859987787934,Terminal,11,7
JN0510,Shimla Terminal,36.958247206066986,80.55920697501699,Major,11,49
JN0511,Jalandhar Junction,29.057075982713137,77.1198224401288,Yard,2,19
JN0512,Gorakhpur,19.284567278835876,84.1716294069516,Terminal,9,35
JN0513,Vadodara Central,19.679238726142017,77.9594870525653,Minor,5,33
JN0514,Puri,27.994743082796155,96.07658682059797,Major,11,45
JN0515,Singrauli,35.9890803213929,82.20145643174195,Minor,7,25
JN0516,Surat Central,36.92889842875599,77.39325418033286,Terminal,5,26
JN0517,Udaipur,11.168585141134859,95.51914037504362,Minor,10,43
JN0518,Coimbatore,9.219299086202396,85.348895035705,Minor,8,33
JN0519,Lucknow Junction,26.20331199442146,78.89381332929702,Yard,8,41
JN0520,Kanpur Junction,19.69365470774308,88.55292360870894,Yard,3,5
JN0521,Jalandhar Central,29.937852686371958,71.20679642499113,Yard,9,19
JN0522,Bikaner Junction,28.009101352110022,96.17065360965074,Yard,7,12
JN0523,Jodhpur Junction,11.65697818363487,79.39580539246379,Minor,11,8
JN0524,Ahmedabad Central,22.684778532809215,85.22903450998733,Yard,8,30
JN0525,Trivandrum,11.523823916592319,91.4920099386476,Terminal,2,29
JN0526,Amritsar Terminal,9.247062797892585,71.5312249503874,Minor,2,43
JN0527,Indore Central,28.649581477045587,92.41719144251158,Yard,8,13
JN0528,Surat,14.459714337937413,77.79202889522725,Yard,9,36
JN0529,Lucknow Central,17.730303049147054,77.78439210621423,Major,11,35
JN0530,Nagpur Terminal,9.348385151047825,71.21773156999576,Minor,4,5
JN0531,Kota Central,10.906619442643644,89.87690271022238,Minor,8,21
JN0532,Jalandhar Terminal,16.313118204970326,90.66321705449859,Terminal,11,33
JN0533,Bikaner Terminal,24.58459505971719,76.86132876962147,Terminal,11,34
JN0534,Mumbai Central Central,33.94162671497714,88.73806279492459,Terminal,3,18
JN0535,Raipur,33.02857740036252,83.24094043435666,Yard,6,49
JN0536,Vijayawada Central,17.748630284567867,76.53533058270584,Yard,5,15
JN0537,Gwalior Junction,12.381640380556188,88.32043270943367,Minor,8,20
JN0538,Lucknow Central,32.25772255831316,95.54869527063391,Minor,5,31
JN0539,Katni,18.19180853064982,72.84590254520339,Terminal,6,39
JN0540,Agra Junction,32.80982408620872,92.10014628610672,Minor,10,36
JN0541,Bangalore Central,14.306400424150244,94.93531657993591,Minor,3,36
JN0542,Trivandrum Central,16.50732631982564,91.75477642526903,Major,5,28
JN0543,Chennai Central Junction,25.45368835591632,84.61681567929419,Minor,8,22
JN0544,Udaipur,21.458038277505864,81.05082684854193,Yard,3,12
JN0545,Silchar Central,10.250271877308322,72.207593952535,Minor,2,16
JN0546,Meerut,30.274509697923772,92.24354902371077,Major,9,44
JN0547,Kota Terminal,33.68019132384271,93.71101143074996,Minor,8,43
JN0548,Satna,19.68621120357843,68.47957661225945,Terminal,10,14
JN0549,Bellary,24.832126807624263,70.14493243085772,Minor,5,33
JN0550,Jammu Terminal,12.887097172169021,81.2218083052631,Major,6,45
JN0551,Jodhpur Central,30.67062990564296,78.30485153836686,Terminal,5,21
JN0552,Bhubaneswar,10.233927999539304,68.82603050592887,Major,10,31
JN0553,New Delhi,36.77520879551169,79.50699356250394,Minor,7,21
JN0554,Kolkata,23.4889490124901,74.32981500274819,Minor,3,30
JN0555,Chennai Central Junction,22.573359174348013,75.8641557856249,Major,10,42
JN0556,Bhopal Junction,29.926076696431082,70.84544734311486,Minor,11,41
JN0557,Vadodara,16.284284676554968,93.07824277067374,Yard,10,27
JN0558,Hyderabad Terminal,12.874626975236282,71.40668626791292,Terminal,6,48
JN0559,Kochi Terminal,22.36976614258851,71.09195891135728,Terminal,8,19
JN0560,Kolkata Terminal,26.44517029882469,95.5353675204357,Minor,9,27
JN0561,Chennai Central Terminal,25.371366476323757,92.83176195219835,Major,3,15
JN0562,Ajmer Junction,15.793096614478936,86.90973640384412,Minor,3,33
JN0563,Bareilly,17.030763706301464,71.51135764900242,Major,4,24
JN0564,Dehradun Terminal,8.544745456528274,96.24412677365765,Major,6,31
JN0565,Bikaner,24.293668938313658,75.66969256857291,Terminal,3,43
JN0566,Ludhiana Junction,19.813289537254047,88.26769646839497,Minor,6,23
JN0567,Chennai Central,15.959109455939544,93.48906333511687,Major,9,17
JN0568,Gorakhpur Junction,17.347666042213735,80.70193468897106,Major,7,23
JN0569,Udaipur Central,31.60750586622146,72.77498595942485,Minor,3,43
JN0570,Guwahati,33.71779935296213,88.74142280568782,Yard,5,5
JN0571,Chennai Central Terminal,19.57967842474779,82.72893207640705,Minor,7,10
JN0572,Korba,22.76811226458338,88.13396764664003,Minor,4,12
JN0573,Hyderabad Terminal,20.977760004903857,87.2030173573836,Minor,2,47
JN0574,Ratlam,31.156341472270313,95.97077712375798,Minor,4,12
JN0575,Nashik Central,13.662926664167664,69.23188423232223,Major,11,26
JN0576,Ahmedabad Central,14.358705346184822,76.85235524391285,Major,5,32
JN0577,Ahmedabad Central,27.329615203632976,93.25350231849292,Major,5,34
JN0578,Ahmedabad Central,20.268049193383362,92.54201718541913,Yard,4,11
JN0579,Ranchi,21.63722058413931,93.28886231044314,Terminal,11,6
JN0580,Shimla Junction,36.9189307276697,90.62556595457292,Yard,9,27
JN0581,Jodhpur Central,36.801952898351644,96.84957784980939,Terminal,4,31
JN0582,Hubli,28.74825170543468,88.36665996949884,Minor,8,43
JN0583,Jammu,13.623906788139733,72.68849773105764,Yard,8,6
JN0584,Haridwar Terminal,24.521434329026885,74.42620948274397,Yard,5,42
JN0585,Shimla Central,20.65418463480474,90.90744804938251,Major,6,30
JN0586,Dibrugarh Terminal,35.1426994581295,72.77749011253489,Terminal,8,34
JN0587,Gwalior Junction,21.392389486568977,96.97363226612201,Minor,8,34
JN0588,Coimbatore Terminal,33.251062892913666,86.38688138554598,Minor,3,17
JN0589,Coimbatore Central,10.833393121931174,85.8620282055134,Major,7,19
JN0590,Sangli,23.27568772047134,78.48009573540074,Terminal,5,19
JN0591,Bangalore Central,36.126848914571134,94.81656076932154,Yard,11,19
JN0592,Davangere,11.480079738889753,83.42718030039845,Yard,7,29
JN0593,Allahabad Central,32.01009542070385,88.51618896025414,Yard,2,36
JN0594,Asansol,11.775639336240634,70.35709404038575,Terminal,3,25
JN0595,Jodhpur,28.774702598307265,81.17788278716245,Major,6,44
JN0596,Hubli Terminal,31.942651502720224,95.16644453616705,Major,2,19
JN0597,Surat Junction,26.41251282404986,92.83268047476739,Minor,10,48
JN0598,Chennai Central,12.921979752688316,68.00457459276365,Terminal,10,27
JN0599,Kochi Junction,15.071333891182272,76.63841361416101,Minor,11,38
JN0600,Shimla Central,27.565545768671694,69.61352112053238,Yard,10,13
JN0601,Agra,14.983301852483951,81.3552926029549,Yard,5,47
JN0602,Shimla Terminal,31.71842249875461,88.06455033932875,Terminal,11,41
JN0603,Bhopal,10.782716893451108,79.65824567787499,Terminal,4,23
JN0604,Singrauli,29.18444623692663,74.59793392916471,Yard,6,15
JN0605,Bhopal Terminal,33.632874888692044,85.85751312623191,Minor,6,16
JN0606,Chandigarh Junction,32.425237970777786,91.86782095507718,Terminal,6,29
JN0607,Allahabad Terminal,36.40319489665039,76.5847119940977,Minor,2,18
JN0608,Kota Terminal,32.84293745838305,85.21478328051214,Minor,4,29
JN0609,Jalandhar Junction,31.651911066823363,87.89612150725887,Major,6,40
JN0610,Mumbai Central Central,20.06603683104512,70.70952413843249,Minor,11,26
JN0611,Singrauli,11.739181857174698,74.94868512881796,Major,5,24
JN0612,Hyderabad Terminal,13.028289144398563,70.85317928270211,Minor,9,26
JN0613,Jalandhar Central,27.832635229941836,68.57223077438375,Minor,4,38
JN0614,Kolkata,32.54411461612627,87.67544292323765,Yard,3,16
JN0615,Mumbai Central Terminal,12.576982457694157,71.9792295469567,Major,5,25
JN0616,New Delhi Terminal,23.84896530549967,80.24249978289691,Yard,2,14
JN0617,Dibrugarh,10.754612704342051,77.3021680066293,Terminal,10,8
JN0618,Udaipur Junction,12.585846725861572,92.95753022014158,Minor,10,9
JN0619,Raichur,21.568227495384015,75.97616750928127,Major,8,12
JN0620,Jammu Terminal,23.43256706456023,71.10754421088077,Major,8,10
JN0621,Kolkata,13.081504478617342,90.46692705567091,Yard,8,9
JN0622,Nashik Terminal,12.512119407165228,95.84036706032884,Major,7,11
JN0623,Pune Junction,36.05464727682166,96.60374580258451,Minor,7,29
JN0624,Madurai Central,26.974883324487624,70.32094452321216,Major,2,19
JN0625,Mumbai Central Central,23.331889756685772,94.9111027918243,Terminal,11,38
JN0626,Ratlam,30.955677795396745,71.34344653662441,Major,7,19
JN0627,Coimbatore Terminal,32.580729852253825,74.10973152249932,Terminal,10,27
JN0628,Ahmedabad Junction,34.38869683490567,94.55216757993122,Minor,9,22
JN0629,Vadodara,32.79259179823336,96.25303324013036,Terminal,7,7
JN0630,Jaipur,29.724351791750248,84.39002443049418,Terminal,7,7
JN0631,Kanpur Central,22.569557307462535,77.8217085292539,Major,6,31
JN0632,Dibrugarh Junction,23.76277352483382,74.90960998685797,Terminal,8,6
JN0633,Agra Central,26.081726488730443,78.3737861833304,Yard,4,36
JN0634,Ludhiana,19.48470604276804,96.51400165769957,Major,11,44
JN0635,Nashik,23.172308958028264,94.07521336490548,Yard,10,15
JN0636,Allahabad Junction,20.67526439996678,71.5925363935713,Minor,7,30
JN0637,Ludhiana Terminal,30.996815890382827,84.78231878307503,Major,4,22
JN0638,Hubli Central,17.610430029336484,96.34000538501303,Minor,8,37
JN0639,Agra Junction,21.44963732346676,80.03726574122618,Terminal,8,13
JN0640,Guwahati Junction,34.69369671780276,88.99554369219639,Minor,3,44
JN0641,Katni,27.46226245285864,68.93888594095783,Major,8,21
JN0642,Indore Junction,18.052572526932593,73.84390963729915,Terminal,4,37
JN0643,Vijayawada Junction,20.775130575540253,75.32408187484955,Major,10,42
JN0644,Hyderabad,30.40350908767231,77.41568973379623,Terminal,3,23
JN0645,Meerut Junction,13.139072014815946,93.31803244425797,Yard,11,35
JN0646,Chennai Central Central,19.799059118639693,75.59729136407701,Major,9,6
JN0647,Bhubaneswar,27.92172600760593,76.38919030881692,Minor,2,25
JN0648,Jalandhar,13.392649916339773,71.22052088696518,Terminal,5,43
JN0649,Trivandrum Junction,31.781721606641355,96.87265263391836,Major,11,12
JN0650,Shimla Central,20.312275907990156,92.28249558091102,Yard,7,15
JN0651,Hyderabad,31.880073437497632,72.47366386088935,Terminal,9,22
JN0652,Bangalore Central,14.566869101012873,84.79876705768078,Terminal,6,28
JN0653,Asansol,31.073599001678243,86.31769019293341,Major,11,6
JN0654,Ahmedabad,33.483754026200316,92.23652511151494,Terminal,11,49
JN0655,Bhilai,25.84974810268625,70.92557881355033,Minor,11,16
JN0656,Davangere,30.461959496737055,74.06346042260317,Terminal,6,29
JN0657,Bilaspur,8.432397660489428,71.75268701735847,Yard,7,44
JN0658,Gwalior,34.77519005539119,70.11459334588315,Minor,9,13
JN0659,Mangalore,8.396136619623467,70.25178954524543,Minor,7,14
JN0660,Kanpur Central,26.2172955308003,83.86988540849921,Yard,5,17
JN0661,Vadodara,32.96479581326001,89.84318972342744,Major,7,42
JN0662,Bikaner Terminal,18.586487048712357,93.50310199766749,Minor,9,45
JN0663,Shimla Junction,13.32333410347248,80.31467516796243,Minor,8,5
JN0664,Agra Terminal,24.05571132197781,92.55299249156653,Minor,4,41
JN0665,Dibrugarh,31.869771828573377,94.79098898457492,Terminal,2,45
JN0666,Vijayawada Terminal,34.27724079195307,73.4788269383346,Minor,2,26
JN0667,Aurangabad,17.02458088627692,81.04071567566956,Yard,6,35
JN0668,Mysore Central,16.49223305134755,87.70573265936011,Yard,9,37
JN0669,Kolkata Central,27.10005275992974,96.28771040575354,Major,8,27
JN0670,Nashik Junction,24.85883729103666,78.20298001551754,Yard,2,35
JN0671,Pune,22.761063322565406,96.75633549036957,Terminal,9,13
JN0672,Kanpur,20.843244677070825,82.2430881049052,Terminal,11,5
JN0673,Jammu Central,17.52221014051083,70.18289498910451,Major,7,22
JN0674,Gorakhpur Terminal,22.07234438320358,90.75845531372089,Terminal,9,44
JN0675,Jalandhar Junction,32.65611846645764,78.31076168144563,Major,10,40
JN0676,Nagpur Central,14.151636562936257,81.71974160488188,Yard,5,18
JN0677,Jammu,34.04864660172207,77.67773060579799,Yard,5,14
JN0678,Pune,9.536214275336924,92.81247618456682,Major,10,8
JN0679,Madurai Terminal,11.289395375629404,68.96205057491744,Terminal,8,5
JN0680,Kanpur Terminal,36.132221948390026,87.36794644495073,Major,2,43
JN0681,Gwalior,23.517138743597222,91.1271803536775,Yard,7,34
JN0682,Kota Junction,24.27219315428362,83.47174899790089,Yard,10,16
JN0683,Jalandhar Junction,19.920234397206986,90.13832967479942,Terminal,5,33
JN0684,Haridwar Central,9.98671945290502,72.88950618009373,Terminal,3,12
JN0685,Vijayawada,34.797000280477384,70.25249998491232,Major,5,47
JN0686,Agra Junction,19.331760083563704,89.48347157724959,Yard,10,15
JN0687,Indore Central,19.28577387889092,82.14659097242037,Terminal,4,40
JN0688,Nagpur Terminal,36.58659635829085,74.20297635486897,Yard,11,10
JN0689,Ajmer Junction,17.830509590806955,79.01070790984889,Major,11,36
JN0690,Silchar Central,14.084970909626279,96.47444159422557,Terminal,2,31
JN0691,Nashik,20.49669636617893,95.67657385099363,Major,9,31
JN0692,Guwahati,16.925989910889818,76.38118370729944,Minor,3,31
JN0693,Raichur,17.510537481323098,80.263233356174,Major,6,12
JN0694,Vijayawada,27.71057880307841,78.18536928935953,Minor,6,20
JN0695,Sangli,8.359261335208918,79.58246509326297,Minor,6,27
JN0696,Amritsar Central,33.925642538960176,96.01681485854938,Major,3,26
JN0697,Bina,26.602364717634373,69.97889280998818,Yard,4,27
JN0698,Davangere,26.98432875159576,69.42269265485065,Major,5,22
JN0699,Kota Junction,35.740353928273905,77.93536436532547,Yard,2,43
JN0700,Srinagar Terminal,31.00366066992634,72.35445568133238,Major,9,9
JN0701,Chandigarh Junction,17.89486009937245,87.19561417457986,Terminal,3,37
JN0702,Trivandrum Terminal,11.482630490574984,68.1642270152481,Yard,10,15
JN0703,Chennai Central Terminal,14.548907245156979,83.86477522916016,Minor,8,35
JN0704,Udaipur Central,19.41375678422698,82.01421212729412,Minor,10,12
JN0705,Shimla Junction,30.470005232984022,77.78255640199903,Yard,5,13
JN0706,Dehradun Junction,22.424053187869013,72.29521682178166,Major,10,45
JN0707,Raipur,32.38578032463306,69.4541766690825,Major,4,25
JN0708,Bareilly Terminal,16.259210853236972,94.44087562804283,Terminal,11,39
JN0709,Meerut Central,23.291674860735025,94.1251689376458,Terminal,3,46
JN0710,Indore Terminal,22.521902967488593,82.19726628060056,Yard,9,32
JN0711,Surat Central,31.895566695099657,93.48522778449187,Yard,9,5
JN0712,Shimla Junction,35.86139732808467,71.47873002469757,Minor,10,11
JN0713,Gorakhpur Central,18.44341374918111,85.40359425824539,Major,6,18
JN0714,Ajmer,23.607811350884788,83.4533366956837,Terminal,2,40
JN0715,Amritsar Central,10.079605105663049,69.26325973660018,Major,4,47
JN0716,Dehradun,36.39790688127955,86.99290430839194,Terminal,5,16
JN0717,Davangere,13.178032919262575,68.03812436948817,Minor,2,22
JN0718,Jaipur Junction,23.84864900528627,88.32811998276549,Major,10,28
JN0719,Jammu Junction,15.687650655896048,84.54624150048605,Minor,6,37
JN0720,Chandigarh Junction,15.752996652606747,86.7315792657599,Yard,8,25
JN0721,Gwalior Terminal,20.30654987175906,68.45270804547415,Yard,9,44
JN0722,Allahabad Terminal,15.0891140974432,92.15262220615183,Minor,5,27
JN0723,Bhopal,14.72708511257579,71.51301864161815,Minor,2,16
JN0724,Guwahati Terminal,28.15399279574053,76.94344316698924,Minor,5,19
JN0725,Mysore Terminal,8.447039816219638,91.68895393568965,Yard,5,40
JN0726,Jaipur Central,10.489426050996887,89.16755325586475,Minor,4,33
JN0727,Mumbai Central Terminal,30.104692899622908,96.7131837283126,Minor,4,11
JN0728,Meerut Central,25.248510228934215,78.11229446503637,Terminal,5,16
JN0729,Ludhiana Junction,21.16405068680329,74.15267662499984,Major,3,45
JN0730,Gwalior Central,23.83533612738536,79.62722334389443,Terminal,7,12
JN0731,Patna Junction,31.068192408040375,79.25160792276435,Minor,3,40
JN0732,Patna,29.425995683184205,74.13433015003899,Terminal,3,39
JN0733,Kochi,14.56181795799462,90.99416607155943,Terminal,9,24
JN0734,Allahabad Terminal,17.741501508093997,71.89291415371856,Terminal,5,29
JN0735,Raichur,26.172127751415957,91.81855406015706,Terminal,8,16
JN0736,Lucknow Terminal,27.35993663215826,88.45685734523103,Yard,8,34
JN0737,Hubli Central,35.73991835314699,73.84194796772802,Terminal,11,28
JN0738,Kanpur Terminal,36.6973794388964,72.57297149012128,Major,8,15
JN0739,Solapur,30.705775213051123,70.0706348315203,Major,8,8
JN0740,Srinagar Central,9.58165015957937,92.42409232609754,Terminal,6,40
JN0741,Jammu Terminal,34.549525411117045,92.02649165218381,Terminal,6,34
JN0742,Durgapur,17.595140014326116,95.68484408367333,Major,11,31
JN0743,Amritsar Terminal,19.706699195008913,79.49038418997165,Major,6,44
JN0744,Jodhpur Junction,15.401705290638397,70.58824279746094,Terminal,6,36
JN0745,Hyderabad,15.44550643890493,70.92577526106992,Major,6,29
JN0746,Varanasi Central,26.645005036662038,92.97277704829865,Yard,10,25
JN0747,Kanpur Terminal,11.325990216512,96.75971263483567,Minor,7,46
JN0748,Nashik Terminal,24.855854000779498,90.76767391382472,Terminal,4,38
JN0749,Meerut,15.212507523027568,87.66729495308297,Terminal,4,32
JN0750,Varanasi Terminal,30.594021432820753,89.01888973466762,Major,2,19
JN0751,Mysore Terminal,11.775491126823269,96.05225599468714,Major,9,12
JN0752,Gwalior Central,22.608249613938792,72.69142733515639,Terminal,9,23
JN0753,Coimbatore Terminal,10.931218278780538,91.2556913754235,Major,5,7
JN0754,Chennai Central Central,26.40195408498718,87.84717731317014,Terminal,9,17
JN0755,Hubli Central,14.777030747849764,82.19968214275147,Terminal,11,22
JN0756,Davangere,8.912258662134757,88.16879252148324,Yard,8,37
JN0757,Kanpur Terminal,21.800882814055228,81.65204642836336,Yard,5,46
JN0758,Lucknow,21.08375610694028,85.50569121067365,Major,5,18
JN0759,Vijayawada,33.82224390959579,75.83014489748541,Yard,9,26
JN0760,Mumbai Central Junction,28.477546076263856,96.60452414920955,Yard,7,5
JN0761,Gwalior,12.514607640717287,86.28223069689878,Yard,7,30
JN0762,Lucknow,35.27845997338105,73.84943216420682,Minor,5,13
JN0763,Vijayawada Central,34.52528811528873,84.67826444124148,Minor,4,12
JN0764,Silchar Central,8.83687948674761,69.86166909393661,Yard,6,34
JN0765,Dehradun Terminal,28.935377645776818,91.50930743102185,Terminal,6,45
JN0766,Katni,19.716868559525338,87.67216825419558,Yard,2,17
JN0767,Gwalior,12.80298172289497,73.9181186936524,Yard,9,30
JN0768,Trivandrum Terminal,10.016124667342668,69.38281118324313,Major,2,35
JN0769,Gwalior Junction,14.773793410534122,89.34355017395531,Major,11,38
JN0770,Kanpur Terminal,28.847058113630514,93.40495327411668,Major,7,24
JN0771,Meerut Central,32.24179811780659,89.99493275299606,Minor,9,21
JN0772,Bikaner,10.082418817918606,70.73400335906915,Minor,10,41
JN0773,Vadodara Central,17.770879373957115,89.84279135551265,Minor,9,12
JN0774,Vijayawada Junction,12.844164744980533,74.46076396208885,Terminal,8,19
JN0775,Agra Junction,23.116853399864205,94.7205300520057,Yard,7,31
JN0776,Lucknow Junction,14.20600143364733,88.77820603664469,Minor,11,42
JN0777,Lucknow,28.942511800182206,85.83712686053681,Minor,5,12
JN0778,Jalpaiguri,16.239940061956556,89.25474552928651,Yard,11,12
JN0779,Kochi Junction,28.9272594441363,72.08566849654156,Minor,3,7
JN0780,Dibrugarh Terminal,9.449498737249002,85.68691850840968,Yard,7,18
JN0781,Agra Central,27.19482608632611,83.9624812504665,Minor,7,21
JN0782,Bhubaneswar,9.63496754742602,83.22685223553017,Yard,11,16
JN0783,Trivandrum,25.777404870507183,73.00102487361899,Yard,10,35
JN0784,Vadodara Junction,29.29683088162644,71.50437308868482,Major,11,6
JN0785,New Delhi Terminal,14.316174338376225,77.48880063912895,Yard,8,38
JN0786,Pune Central,15.500566862482327,81.57376502106847,Minor,9,25
JN0787,Kochi Terminal,10.420686391700741,68.16340803598145,Terminal,7,37
JN0788,Jalpaiguri,18.645173571606,83.81193606710094,Minor,9,44
JN0789,Jodhpur Central,17.32605966249742,68.56361950028676,Terminal,10,37
JN0790,Udaipur Central,31.25644328130702,89.07774058761487,Yard,2,18
JN0791,Bhopal Junction,27.35349212726243,82.90724090066792,Major,5,41
JN0792,Jammu Junction,23.744161812850958,80.56731298631856,Yard,9,23
JN0793,Indore,15.503797710852766,76.96949884796787,Terminal,3,47
JN0794,Itarsi,25.01109261608019,85.77813843769918,Minor,7,47
JN0795,Jammu Junction,20.162305301083293,73.16996944133918,Major,8,25
JN0796,Indore Central,27.72176982089826,94.02119749193014,Yard,8,8
JN0797,Vijayawada Junction,23.738336170442707,91.1713007692184,Terminal,4,38
JN0798,Hyderabad,36.33101108712214,72.71134620126816,Minor,6,11
JN0799,Chennai Central Terminal,13.639523995073137,89.7497225321094,Major,8,7
JN0800,Jalpaiguri,24.202978838164018,69.6833437735366,Major,6,27
JN0801,Chandigarh Central,33.98973615010247,71.15481165765226,Terminal,7,44
JN0802,Shimla,25.182105734325827,76.63582512364967,Major,6,7
JN0803,Gorakhpur,13.17962937038593,96.49028924764326,Yard,2,10
JN0804,Bhopal Central,20.009163381595883,85.80585859700969,Yard,2,24
JN0805,Chandigarh,35.06450135984476,73.67525763978814,Minor,7,10
JN0806,Bareilly Terminal,11.211706727084763,78.22178780627529,Major,4,49
JN0807,Chennai Central Junction,20.29418042091386,84.14209362895814,Yard,4,18
JN0808,Nashik,35.83187098486685,81.29435034730255,Minor,11,19
JN0809,Jalandhar Terminal,21.19531993690176,72.33946492375887,Yard,9,5
JN0810,Agra Central,33.63803317305621,70.43317371301774,Yard,2,11
JN0811,Kolkata Junction,11.673095511629588,78.04708791294875,Minor,7,19
JN0812,Meerut Terminal,26.111022445566068,81.5738983523607,Terminal,3,26
JN0813,Bokaro,35.83545937541704,83.0826081905692,Terminal,9,28
JN0814,Nagpur Junction,19.598842128091746,89.16742809997854,Major,4,35
JN0815,Madurai Junction,28.668822085797938,93.57764013221777,Major,2,30
JN0816,Shimla Terminal,35.79210892529733,80.61534589568679,Major,5,16
JN0817,Patna Terminal,23.848897552334904,73.95246836235184,Yard,9,38
JN0818,Lucknow Junction,24.036291994505753,82.16827365696041,Minor,2,14
JN0819,Lucknow,17.014538510004407,95.65603707793487,Terminal,2,47
JN0820,Dehradun Terminal,19.933056651455594,88.73793882411155,Yard,3,5
JN0821,Bhopal Terminal,19.461543870951523,77.66851670531938,Major,6,19
JN0822,New Delhi Central,32.959976666645694,72.25229363579987,Major,8,9
JN0823,Trivandrum,24.658578961594394,91.58048790602116,Yard,9,26
JN0824,Udaipur Central,24.0296759803044,96.06176568925144,Minor,11,13
JN0825,Jamshedpur,15.07404435049627,92.3265344592886,Terminal,4,47
JN0826,Meerut,35.316854139323326,87.75641327541936,Major,7,9
JN0827,Solapur,34.62522882405628,75.20689756742381,Yard,5,23
JN0828,Chandigarh Central,23.064130229009134,86.3277489798126,Yard,2,29
JN0829,Jodhpur Central,31.706947117614067,83.47789917921034,Minor,7,9
JN0830,Kota Junction,9.882785066415392,83.37561308051373,Minor,10,16
JN0831,Indore Terminal,27.76859380241313,73.99108425300517,Yard,10,38
JN0832,Bhopal Terminal,24.67678520567468,73.48920308407914,Major,5,10
JN0833,Dibrugarh Junction,11.446334897424823,77.04481434432832,Major,8,30
JN0834,Sangli,36.22456155755308,93.90102283300357,Yard,7,45
JN0835,Sangli,8.10163524240069,68.80126291844404,Yard,6,22
JN0836,Gwalior Terminal,9.762308783490985,74.87729412385856,Minor,4,43
JN0837,Lucknow Central,35.421046969256125,71.2944687147454,Major,6,49
JN0838,Srinagar Junction,28.549991612618797,69.81103131433667,Major,5,7
JN0839,Kanpur Junction,29.107820173454257,73.32842884943041,Yard,8,44
JN0840,Jaipur Central,17.97485779392346,94.3358296402583,Yard,3,19
JN0841,Udaipur Central,8.715025615499894,94.35209022278427,Terminal,7,18
JN0842,Bangalore Central,34.69607097001196,95.11244204094106,Terminal,9,46
JN0843,Chennai Central,36.7054000767115,81.9852961767703,Major,8,20
JN0844,Jabalpur,35.48189793935158,78.69164529162519,Minor,11,26
JN0845,Lucknow Terminal,31.766010537767006,85.91096206506471,Yard,9,13
JN0846,Patna Junction,14.259266275777218,92.55267786564767,Minor,6,45
JN0847,Indore Terminal,30.142985787722175,95.84598000840772,Minor,5,41
JN0848,Bikaner,33.13933390117619,95.6454794946224,Minor,5,22
JN0849,Nashik Terminal,8.101814676408868,69.16056958143118,Yard,11,38
JN0850,New Delhi Central,15.388005060795514,76.84310449323216,Major,7,43
JN0851,Nashik Junction,9.22849602663068,87.54438902311767,Yard,6,22
JN0852,Gorakhpur Junction,32.002702808902676,80.40309436436993,Yard,10,34
JN0853,Agra Terminal,14.022838766530331,94.44196627063147,Major,10,22
JN0854,Mysore Terminal,36.45852044301484,83.03113834087314,Minor,9,7
JN0855,Kota Junction,12.069360473944252,78.76457484823382,Yard,8,40
JN0856,Gwalior,15.99615947244192,91.09990806734845,Terminal,5,28
JN0857,Surat Junction,36.26548496997144,74.75972805499964,Terminal,7,47
JN0858,Trivandrum Central,34.526176562115225,87.55879106963918,Major,9,28
JN0859,Ajmer Central,23.782865970702105,95.56596078636893,Terminal,3,6
JN0860,Pune Terminal,28.08851318315979,75.35015712224057,Terminal,11,23
JN0861,Mumbai Central Central,22.035731759643657,88.35401037790226,Yard,4,33
JN0862,Bhopal Terminal,28.154056357569555,79.63843787429549,Yard,5,17
JN0863,Mumbai Central Terminal,11.08286881807559,94.29552880460406,Yard,3,45
JN0864,Jodhpur Junction,9.581154207470112,77.56220210724015,Terminal,5,6
JN0865,Raichur,13.825251335058073,90.45355648454108,Yard,11,5
JN0866,Gorakhpur Junction,8.527788172380529,91.2631648862097,Major,2,5
JN0867,Jaipur,23.24329981201072,70.64626650918511,Yard,2,14
JN0868,Bhopal,24.440077815922713,73.69652536310947,Minor,9,27
JN0869,Bangalore Central,35.04093271486542,72.25711002393442,Terminal,3,19
JN0870,Katni,22.545360446298393,78.49219071602863,Yard,3,19
JN0871,Gwalior Junction,19.43314487037724,94.82159085476307,Major,11,12
JN0872,Jammu Central,8.788047052523723,75.63342068314691,Major,7,8
JN0873,Meerut Central,18.247714326710778,91.44963292537423,Terminal,9,43
JN0874,Varanasi Central,16.172944693890855,79.07901008192685,Minor,5,38
JN0875,Indore Terminal,18.79342001497485,87.51042612714411,Yard,4,8
JN0876,Hubli Terminal,8.054309573655889,78.16882920566654,Minor,7,31
JN0877,Silchar Central,23.376362797695904,75.65678577521051,Terminal,5,44
JN0878,Pune,13.962542652134868,83.78328994099164,Yard,11,35
JN0879,Bareilly Junction,24.287343465247012,88.09144342162392,Minor,8,15
JN0880,Varanasi Central,19.23266920484408,92.40906127481311,Minor,9,9
JN0881,Kochi Terminal,20.1568002108513,76.62171737754355,Yard,7,26
JN0882,Katni,11.236492784104861,73.42720591240456,Major,6,33
JN0883,Rourkela,14.833627627990921,95.11969831165656,Minor,10,42
JN0884,Gorakhpur Central,19.5108621380906,91.82467108370186,Major,10,20
JN0885,Surat,22.736561890244282,78.01091690015375,Major,2,42
JN0886,Gorakhpur Junction,31.923215914704524,82.63273206889122,Terminal,4,34
JN0887,Ahmedabad Junction,12.300750309424666,92.80474777876712,Minor,10,13
JN0888,Amritsar,26.31505107781677,70.2825585971344,Minor,3,45
JN0889,Jalandhar Terminal,35.27871495745519,90.08470489420716,Yard,6,12
JN0890,Kanpur,30.73357878069688,94.01891979702195,Yard,9,23
JN0891,Srinagar Central,19.9440404962071,88.76666561711389,Yard,3,27
JN0892,Raichur,9.35244111338612,80.53808441180581,Minor,10,31
JN0893,Hubli Junction,20.557142973261925,86.7516098683395,Major,5,16
JN0894,Jammu Terminal,35.19941764930596,83.34810665182472,Minor,2,6
JN0895,Pune Junction,17.83603498006508,80.65179697235132,Major,2,31
JN0896,Agra Central,29.136190266546798,80.79944228188302,Yard,3,42
JN0897,Rourkela,15.706644909413182,70.75008272647894,Minor,3,35
JN0898,Nagpur Junction,8.99770520371454,80.01671862929017,Terminal,9,38
JN0899,Ajmer Junction,16.346768787908367,75.20376255215879,Terminal,4,47
JN0900,Hubli,23.750430850720498,96.60636983816237,Minor,3,28
JN0901,Udaipur,13.001103356417497,85.43794255062642,Minor,4,27
JN0902,Haridwar Junction,23.64569064554457,88.03669653206465,Major,7,17
JN0903,Indore Terminal,26.012633673634042,74.82444097783274,Minor,9,17
JN0904,Madurai,24.380507964297394,89.67729572056061,Minor,3,44
JN0905,Kolkata,23.928975235719207,68.03867554523296,Minor,10,12
JN0906,Kanpur Junction,19.00391621954759,92.30584324255547,Minor,6,14
JN0907,Siliguri,26.804308132752688,87.66185608920796,Major,7,8
JN0908,Chennai Central,13.138620562037104,81.46384174395484,Minor,5,25
JN0909,Bhopal Terminal,21.328023170503872,73.41017945367285,Yard,2,30
JN0910,Indore Central,20.56897247382839,71.65736605159437,Major,3,46
JN0911,Amritsar,27.53911392816104,94.90365179608773,Minor,5,46
JN0912,Allahabad,24.571720892978504,75.11955251979668,Terminal,3,44
JN0913,New Delhi Junction,21.320236647860327,87.70571242292309,Terminal,9,46
JN0914,Patna Terminal,13.319072560097515,93.91237005272576,Major,9,33
JN0915,Amritsar,19.389755322622587,78.34013048696234,Terminal,10,42
JN0916,Mangalore Central,16.94421157603172,87.70284817025876,Minor,9,7
JN0917,Bhopal,23.658498589420148,73.72995298902123,Yard,5,22
JN0918,Amritsar Junction,34.134484536683445,75.56421972131531,Terminal,6,21
JN0919,Trivandrum Central,11.81423149268559,87.61093637370321,Major,8,22
JN0920,Asansol,25.14938612746424,74.66508530426715,Minor,6,49
JN0921,Mangalore,33.32162141649273,68.93271177433446,Yard,9,42
JN0922,Dibrugarh Terminal,26.21894358707974,85.06609874761975,Minor,5,6
JN0923,Jaipur Terminal,24.120261795498653,92.85581849723587,Minor,10,21
JN0924,Coimbatore,36.12784163341236,86.39914105291248,Major,2,38
JN0925,Nashik,27.09154166477128,70.30467830978034,Terminal,2,17
JN0926,Cuttack,33.423706042541454,88.32260664686987,Yard,6,6
JN0927,Ajmer,18.613620129081404,79.73105815576814,Yard,2,16
JN0928,Singrauli,13.121797084649563,83.91286856190844,Minor,9,43
JN0929,Mangalore Terminal,8.21032041243919,96.65397031687334,Terminal,5,40
JN0930,Indore Junction,21.31951327420736,84.39952120930954,Minor,2,43
JN0931,Meerut,13.339770669354362,92.37048365617424,Major,11,40
JN0932,Meerut Junction,28.29330226096171,73.9615800351038,Major,3,9
JN0933,Shimla Junction,21.828441313548332,77.05480109207862,Major,6,6
JN0934,Ranchi,28.00974469427488,93.22301823746297,Major,11,17
JN0935,Surat Terminal,13.944418352926021,87.89143656588475,Minor,7,44
JN0936,Mumbai Central Junction,34.18198334007783,76.00238027496674,Major,7,37
JN0937,Shimla,17.71642595721599,90.57782882125798,Minor,10,49
JN0938,Allahabad,29.155789998804245,74.00509308631706,Major,7,36
JN0939,Agra Terminal,33.76092467569346,79.23986835566816,Minor,11,30
JN0940,Udaipur Terminal,26.779893783858373,68.10477504349292,Yard,8,47
JN0941,Trivandrum Terminal,25.941933141647166,69.90213507527447,Minor,8,15
JN0942,Trivandrum Terminal,23.247599897730282,76.46932118483954,Yard,4,39
JN0943,Ratlam,9.876309584615665,89.2822325291724,Major,9,21
JN0944,Gwalior Junction,23.36707609834522,92.45977286627746,Major,3,32
JN0945,Jodhpur Central,21.50332572521497,96.99041965056799,Major,8,14
JN0946,Madurai,22.60387154501935,73.51879019786567,Yard,5,22
JN0947,Hyderabad,13.57112153678325,91.00980614979184,Terminal,4,10
JN0948,Solapur,24.809544210486575,71.22757421995493,Minor,4,23
JN0949,Katni,32.826764634855124,72.85526548464128,Terminal,10,11
JN0950,Nashik Junction,8.980817339574058,79.72557172107872,Minor,3,44
JN0951,Gwalior,34.89264584004633,88.38103643472206,Yard,8,45
JN0952,Pune Junction,8.93801334964803,86.76092189184916,Minor,3,38
JN0953,Mysore,27.931021739892515,77.29304798086807,Minor,3,40
JN0954,Varanasi,13.635632154939056,72.68667783726555,Terminal,10,35
JN0955,Madurai Junction,21.54275216315263,94.90742573157964,Minor,5,35
JN0956,Kolhapur,15.057721688784905,71.74633361645374,Minor,10,43
JN0957,Bangalore Terminal,11.545335256329981,93.35461523517391,Yard,4,16
JN0958,Jamshedpur,34.542304636892,79.72361873688943,Yard,11,43
JN0959,Trivandrum Junction,15.301022209817994,78.87071591110734,Terminal,6,26
JN0960,Dibrugarh Central,16.821291851226967,81.60141848603085,Minor,3,5
JN0961,Ajmer Junction,14.35634602391762,87.6776380822169,Major,8,5
JN0962,Varanasi,34.09689855535024,78.09420625913003,Major,2,32
JN0963,Davangere,29.122477779364953,94.00804230038051,Terminal,8,41
JN0964,Trivandrum Terminal,25.349214993496286,85.9548149752324,Yard,9,14
JN0965,Ludhiana Junction,24.940690207005424,89.39942866140028,Major,11,48
JN0966,Rewa,31.607591297048266,95.66295685303447,Terminal,9,24
JN0967,Mysore Terminal,32.663134615729916,72.21175320321397,Terminal,8,31
JN0968,Bhubaneswar,23.27574274654168,83.59729687132992,Terminal,9,7
JN0969,Surat Terminal,36.091224481255395,87.4923119210398,Yard,3,24
JN0970,Davangere,36.182908315702775,78.4091080473384,Yard,3,45
JN0971,Mangalore Terminal,12.629643166640307,68.82925031242382,Minor,4,16
JN0972,Jodhpur,9.68889569860967,72.52914258278864,Yard,7,10
JN0973,Rewa,25.574292138667154,78.42072078223053,Minor,4,33
JN0974,Meerut,24.533494068336644,71.27419312075786,Minor,2,23
JN0975,Gorakhpur Junction,29.561765412171834,93.6672000137455,Major,4,6
JN0976,Allahabad,20.267418941011115,84.16300687677753,Major,4,25
JN0977,Indore,22.188894551030636,89.6549264488378,Yard,9,25
JN0978,Dhanbad,15.31987796703887,71.31276731942332,Major,11,40
JN0979,Ludhiana Terminal,33.33756608638209,90.89419758193289,Minor,11,28
JN0980,Madurai,9.401828221164696,93.29598068409257,Yard,7,13
JN0981,Kolkata,8.636651554433602,95.14613155402083,Terminal,9,8
JN0982,Ludhiana Junction,24.742037361882364,88.44549915970117,Terminal,11,33
JN0983,Vadodara Terminal,27.54666545144735,71.02825093860834,Minor,5,38
JN0984,Dhanbad,25.77278844493755,88.85670025489598,Yard,4,38
JN0985,Dibrugarh,27.772107527247208,81.03497699037742,Yard,6,14
JN0986,Bikaner Central,24.23896026722945,85.12900157165059,Yard,9,33
JN0987,Allahabad Junction,19.42986404202104,73.85218785892351,Terminal,8,49
JN0988,Ujjain,27.945418030818963,81.66586393145778,Terminal,3,30
JN0989,Vijayawada Terminal,10.095950931194796,89.59458309401097,Major,8,11
JN0990,Nashik Junction,10.609581134138999,76.3098745580607,Yard,7,30
JN0991,Ajmer Central,26.047085626220454,69.62271995202417,Terminal,11,6
JN0992,Rewa,28.226712127298207,69.51506624718296,Terminal,3,17
JN0993,Vadodara Terminal,16.264079706380123,79.3000215263923,Yard,9,30
JN0994,Amritsar Central,22.22387380903395,69.15436481344054,Minor,11,38
JN0995,Ajmer Terminal,22.382139201903,91.46625762775534,Major,6,19
JN0996,Patna Junction,35.43406360683238,88.64520853079785,Major,7,27
JN0997,Haridwar,11.190616046752822,84.23539177193575,Terminal,7,13
JN0998,Jodhpur Terminal,31.100847260439274,79.97676974559374,Minor,5,34
JN0999,Ahmedabad Terminal,17.033367317100456,74.61457707832824,Yard,9,22
JN1000,Mumbai Central Terminal,10.455424613983393,81.47161544220816,Yard,6,49
